{
"type": "FeatureCollection",
"name": "MONMO_36_toilets",
"crs": { "type": "name", "properties": { "name": "urn:ogc:def:crs:OGC:1.3:CRS84" } },
"features": [
{ "type": "Feature", "properties": { "name": "Abergavenny Bus Station", "payment_info": "Free", "accessible": "Unknown", "radar": "Unknown", "women": "True", "men": "True", "baby_change": "True", "Mon": "Unknown", "Tue": "Unknown", "Wed": "Unknown", "Thu": "Unknown", "Fri": "Unknown", "Sat": "Unknown", "Sun": "Unknown", "index_right": 57, "park_offical_id": "MONMO_36" }, "geometry": { "type": "Point", "coordinates": [ -3.0154157, 51.8201938 ] } },
{ "type": "Feature", "properties": { "name": "Queen st", "payment_info": "Cost unknown", "accessible": "False", "radar": "False", "women": "True", "men": "True", "baby_change": "False", "Mon": "Unknown", "Tue": "Unknown", "Wed": "Unknown", "Thu": "Unknown", "Fri": "Unknown", "Sat": "Unknown", "Sun": "Unknown", "index_right": 57, "park_offical_id": "MONMO_36" }, "geometry": { "type": "Point", "coordinates": [ -3.019368052, 51.824051659 ] } },
{ "type": "Feature", "properties": { "name": "Morrisons", "payment_info": "Free", "accessible": "True", "radar": "Unknown", "women": "True", "men": "True", "baby_change": "True", "Mon": "07:00-22:00", "Tue": "07:00-22:00", "Wed": "07:00-22:00", "Thu": "07:00-22:00", "Fri": "07:00-22:00", "Sat": "07:00-22:00", "Sun": "10:00-16:00", "index_right": 57, "park_offical_id": "MONMO_36" }, "geometry": { "type": "Point", "coordinates": [ -3.016522229, 51.823565673 ] } },
{ "type": "Feature", "properties": { "name": "Market Street", "payment_info": "Free", "accessible": "False", "radar": "True", "women": "True", "men": "True", "baby_change": "Unknown", "Mon": "Unknown", "Tue": "Unknown", "Wed": "Unknown", "Thu": "Unknown", "Fri": "Unknown", "Sat": "Unknown", "Sun": "Unknown", "index_right": 57, "park_offical_id": "MONMO_36" }, "geometry": { "type": "Point", "coordinates": [ -3.017487824, 51.822418681 ] } },
{ "type": "Feature", "properties": { "name": "Castle Street Car Park", "payment_info": "Free", "accessible": "False", "radar": "False", "women": "True", "men": "True", "baby_change": "Unknown", "Mon": "Unknown", "Tue": "Unknown", "Wed": "Unknown", "Thu": "Unknown", "Fri": "Unknown", "Sat": "Unknown", "Sun": "Unknown", "index_right": 57, "park_offical_id": "MONMO_36" }, "geometry": { "type": "Point", "coordinates": [ -3.019123971, 51.821059171 ] } },
{ "type": "Feature", "properties": { "name": "Nicholls cafe", "payment_info": "Free", "accessible": "False", "radar": "False", "women": "True", "men": "True", "baby_change": "True", "Mon": "09:00-17:00", "Tue": "09:00-17:00", "Wed": "09:00-17:00", "Thu": "09:00-17:00", "Fri": "09:00-17:00", "Sat": "09:00-17:00", "Sun": "09:00-17:00", "index_right": 57, "park_offical_id": "MONMO_36" }, "geometry": { "type": "Point", "coordinates": [ -3.020443541, 51.824366041 ] } }
]
}
